[{"name":"Ghaziabad","aqi":283,"cig":"12","geometry":{"type":"Point","coordinates":[77.412036,28.671153]},"properties":{"popupMarkup":"<strong>Ghaziabad</strong> <p>AQI: 283</p>","aqi":283,"cig":"12"}},{"name":"Noida","aqi":213,"cig":"10","geometry":{"type":"Point","coordinates":[77.327107,28.570784]},"properties":{"popupMarkup":"<strong>Noida</strong> <p>AQI: 213</p>","aqi":213,"cig":"10"}},{"name":"Delhi","aqi":235,"cig":"10","geometry":{"type":"Point","coordinates":[77.21667,28.66667]},"properties":{"popupMarkup":"<strong>Delhi</strong> <p>AQI: 235</p>","aqi":235,"cig":"10"}},{"name":"Lucknow","aqi":158,"cig":"7","geometry":{"type":"Point","coordinates":[80.9346,26.8381]},"properties":{"popupMarkup":"<strong>Lucknow</strong> <p>AQI: 158</p>","aqi":158,"cig":"7"}},{"name":"Gurugram","aqi":254,"cig":"11","geometry":{"type":"Point","coordinates":[77.029919,28.464615]},"properties":{"popupMarkup":"<strong>Gurugram</strong> <p>AQI: 254</p>","aqi":254,"cig":"11"}},{"name":"Faridabad","aqi":220,"cig":"10","geometry":{"type":"Point","coordinates":[77.310384,28.402979]},"properties":{"popupMarkup":"<strong>Faridabad</strong> <p>AQI: 220</p>","aqi":220,"cig":"10"}},{"name":"Varanasi","aqi":122,"cig":"5","geometry":{"type":"Point","coordinates":[83.007629,25.335649]},"properties":{"popupMarkup":"<strong>Varanasi</strong> <p>AQI: 122</p>","aqi":122,"cig":"5"}},{"name":"Kanpur","aqi":268,"cig":"12","geometry":{"type":"Point","coordinates":[80.321759,26.460914]},"properties":{"popupMarkup":"<strong>Kanpur</strong> <p>AQI: 268</p>","aqi":268,"cig":"12"}},{"name":"Patna","aqi":133,"cig":"6","geometry":{"type":"Point","coordinates":[85.123525,25.609324]},"properties":{"popupMarkup":"<strong>Patna</strong> <p>AQI: 133</p>","aqi":133,"cig":"6"}},{"name":"Muzaffarpur","aqi":114,"cig":"5","geometry":{"type":"Point","coordinates":[85.385789,26.11829]},"properties":{"popupMarkup":"<strong>Muzaffarpur</strong> <p>AQI: 114</p>","aqi":114,"cig":"5"}},{"name":"Mandi Gobindgarh","aqi":75,"cig":"3","geometry":{"coordinates":[78.177967,29.973318],"type":"Point"},"properties":{"popupMarkup":"<strong>Mandi Gobindgarh</strong> <p>AQI: 75</p>","aqi":75,"cig":"3"}},{"name":"Ludhiana","aqi":69,"cig":"3","geometry":{"type":"Point","coordinates":[75.851601,30.909016]},"properties":{"popupMarkup":"<strong>Ludhiana</strong> <p>AQI: 69</p>","aqi":69,"cig":"3"}},{"name":"Jodhpur","aqi":126,"cig":"6","geometry":{"type":"Point","coordinates":[73.035143,26.296772]},"properties":{"popupMarkup":"<strong>Jodhpur</strong> <p>AQI: 126</p>","aqi":126,"cig":"6"}},{"name":"Amritsar","aqi":61,"cig":"3","geometry":{"type":"Point","coordinates":[74.873679,31.634308]},"properties":{"popupMarkup":"<strong>Amritsar</strong> <p>AQI: 61</p>","aqi":61,"cig":"3"}},{"name":"Ahmedabad","aqi":91,"cig":"4","geometry":{"type":"Point","coordinates":[72.579707,23.021624]},"properties":{"popupMarkup":"<strong>Ahmedabad</strong> <p>AQI: 91</p>","aqi":91,"cig":"4"}},{"name":"Panchkula","aqi":41,"cig":"2","geometry":{"type":"Point","coordinates":[76.855107,30.69754]},"properties":{"popupMarkup":"<strong>Panchkula</strong> <p>AQI: 41</p>","aqi":41,"cig":"2"}},{"name":"Gaya","aqi":70,"cig":"3","geometry":{"type":"Point","coordinates":[110.4468,-6.9795]},"properties":{"popupMarkup":"<strong>Gaya</strong> <p>AQI: 70</p>","aqi":70,"cig":"3"}},{"name":"Nagpur","aqi":27,"cig":"1","geometry":{"type":"Point","coordinates":[79.082056,21.149813]},"properties":{"popupMarkup":"<strong>Nagpur</strong> <p>AQI: 27</p>","aqi":27,"cig":"1"}},{"name":"Vijaywada","aqi":32,"cig":"1","geometry":{"type":"Point","coordinates":[80.61851,16.508759]},"properties":{"popupMarkup":"<strong>Vijaywada</strong> <p>AQI: 32</p>","aqi":32,"cig":"1"}},{"name":"Chandrapur","aqi":43,"cig":"1","geometry":{"type":"Point","coordinates":[79.298667,19.950816]},"properties":{"popupMarkup":"<strong>Chandrapur</strong> <p>AQI: 43</p>","aqi":43,"cig":"1"}},{"name":"Chennai","aqi":58,"cig":"2","geometry":{"type":"Point","coordinates":[80.270186,13.083694]},"properties":{"popupMarkup":"<strong>Chennai</strong> <p>AQI: 58</p>","aqi":58,"cig":"2"}},{"name":"Bhiwadi","aqi":103,"cig":"4","geometry":{"type":"Point","coordinates":[76.837441,28.203941]},"properties":{"popupMarkup":"<strong>Bhiwadi</strong> <p>AQI: 103</p>","aqi":103,"cig":"4"}},{"name":"Mumbai","aqi":44,"cig":"2","geometry":{"type":"Point","coordinates":[72.877393,19.07599]},"properties":{"popupMarkup":"<strong>Mumbai</strong> <p>AQI: 44</p>","aqi":44,"cig":"2"}},{"name":"Nashik","aqi":51,"cig":"2","geometry":{"type":"Point","coordinates":[73.790236,20.011248]},"properties":{"popupMarkup":"<strong>Nashik</strong> <p>AQI: 51</p>","aqi":51,"cig":"2"}},{"name":"Thane","aqi":41,"cig":"2","geometry":{"type":"Point","coordinates":[72.970178,19.194329]},"properties":{"popupMarkup":"<strong>Thane</strong> <p>AQI: 41</p>","aqi":41,"cig":"2"}},{"name":"Aurangabad","aqi":48,"cig":"2","geometry":{"type":"Point","coordinates":[75.339024,19.877263]},"properties":{"popupMarkup":"<strong>Aurangabad</strong> <p>AQI: 48</p>","aqi":48,"cig":"2"}},{"name":"Hyderabad","aqi":56,"cig":"2","geometry":{"type":"Point","coordinates":[78.474061,17.360589]},"properties":{"popupMarkup":"<strong>Hyderabad</strong> <p>AQI: 56</p>","aqi":56,"cig":"2"}},{"name":"Visakhapatnam","aqi":51,"cig":"2","geometry":{"type":"Point","coordinates":[83.301284,17.723128]},"properties":{"popupMarkup":"<strong>Visakhapatnam</strong> <p>AQI: 51</p>","aqi":51,"cig":"2"}},{"name":"Rajamahendravaram","aqi":44,"cig":"2","geometry":{"type":"Point","coordinates":[81.780473,17.005045]},"properties":{"popupMarkup":"<strong>Rajamahendravaram</strong> <p>AQI: 44</p>","aqi":44,"cig":"2"}},{"name":"Chittoor","aqi":11,"cig":"0","geometry":{"type":"Point","coordinates":[79.097282,13.216122]},"properties":{"popupMarkup":"<strong>Chittoor</strong> <p>AQI: 11</p>","aqi":11,"cig":"0"}},{"name":"Bangalore","aqi":23,"cig":"1","geometry":{"type":"Point","coordinates":[77.5913,12.97912]},"properties":{"popupMarkup":"<strong>Bangalore</strong> <p>AQI: 23</p>","aqi":23,"cig":"1"}},{"name":"Trivandrum","aqi":53,"cig":"2","geometry":{"coordinates":[76.918944,8.476694],"type":"Point"},"properties":{"popupMarkup":"<strong>Trivandrum</strong> <p>AQI: 53</p>","aqi":53,"cig":"2"}}]